{
    "version": 3,
    "status": "ok",
    "response": {
        "data": [
            {
                "factual_id": "01469a81-7926-44cb-a9ad-1ee4562529ce",
                "name": "Climate Control",
                "address": "1 Palmer Sq E",
                "address_extended": "Ste 330",
                "locality": "Princeton",
                "region": "NJ",
                "country": "US",
                "postcode": "08542",
                "tel": "(609) 924-3882",
                "category": "Real Estate & Home Improvement > Heating, Ventilating & Air Conditioning",
                "latitude": 40.349469,
                "longitude": -74.660804,
                "status": "1"
            },
            {
                "factual_id": "02780c79-b9cd-45cc-9fcc-212362407b2a",
                "name": "Nassau Capital Advisors",
                "address": "14 Vandeventer Ave",
                "address_extended": "Ste 1",
                "po_box": "PO Box 1475",
                "locality": "Princeton",
                "region": "NJ",
                "country": "US",
                "postcode": "08542",
                "tel": "(609) 430-9700",
                "category": "Real Estate & Home Improvement > Real Estate Agents",
                "website": "http://www.nassaucap.com/",
                "latitude": 40.350386,
                "longitude": -74.657148,
                "status": "1"
            },
            {
                "factual_id": "035baee3-2d73-4643-bab2-091ee55ab233",
                "name": "Princeton Jnctn Metro Office Center",
                "address": "5 Vaughn Dr",
                "address_extended": "Ste 307",
                "locality": "Princeton",
                "region": "NJ",
                "country": "US",
                "postcode": "08540",
                "tel": "(609) 987-8466",
                "category": "Real Estate & Home Improvement > Real Estate Agents",
                "latitude": 40.316235,
                "longitude": -74.628122,
                "status": "1"
            },
            {
                "factual_id": "056e2301-6d5c-48e1-bdf3-9b681f1fa1f8",
                "name": "All Day Locksmith",
                "address": "35 Palmer Sq W",
                "locality": "Princeton",
                "region": "NJ",
                "country": "US",
                "postcode": "08542",
                "tel": "(609) 524-4386",
                "category": "Real Estate & Home Improvement",
                "latitude": 40.350347,
                "longitude": -74.661837,
                "status": "1"
            },
            {
                "factual_id": "067158b0-722b-4fda-b92b-4b4ab87e1749",
                "name": "Mack-Cali",
                "address": "3 Independence Way",
                "address_extended": "Ste 100",
                "locality": "Princeton",
                "region": "NJ",
                "country": "US",
                "postcode": "08540",
                "tel": "(609) 919-0583",
                "category": "Real Estate & Home Improvement > Real Estate Agents",
                "latitude": 40.361528,
                "longitude": -74.601317,
                "status": "1"
            },
            {
                "factual_id": "084de45a-e188-476e-9c25-67e1084d71c2",
                "name": "Eastern Termite and Pest Control",
                "address": "3490 US Highway 1",
                "locality": "Princeton",
                "region": "NJ",
                "country": "US",
                "postcode": "08540",
                "tel": "(609) 520-8344",
                "category": "Real Estate & Home Improvement > Pest Control",
                "latitude": 40.307714,
                "longitude": -74.666967,
                "status": "1"
            },
            {
                "factual_id": "08876dd5-f278-4293-9f9c-750b8a6e9df3",
                "name": "Casa Aziz",
                "address": "18 S Tulane St",
                "locality": "Princeton",
                "region": "NJ",
                "country": "US",
                "postcode": "08542",
                "tel": "(609) 279-1744",
                "category": "Real Estate & Home Improvement > Property Management",
                "latitude": 40.351053,
                "longitude": -74.658928,
                "status": "1"
            },
            {
                "factual_id": "091ca321-e5b0-4768-8cc5-71b767763121",
                "name": "Stephen Rhoads Architect",
                "address": "11 Alta Vista Dr",
                "locality": "Princeton",
                "region": "NJ",
                "country": "US",
                "postcode": "08540",
                "tel": "(609) 730-3880",
                "fax": "(609) 730-4274",
                "category": "Real Estate & Home Improvement",
                "website": "http://www.srhoadsarchitect.com/",
                "email": "sdraia@mindspring.com",
                "latitude": 40.345839,
                "longitude": -74.73883,
                "status": "1"
            },
            {
                "factual_id": "09a13946-3972-486a-bdfd-53600ca54fe0",
                "name": "Telesys Development",
                "address": "777 Alexander Rd",
                "locality": "Princeton",
                "region": "NJ",
                "country": "US",
                "postcode": "08540",
                "tel": "(609) 987-8968",
                "category": "Real Estate & Home Improvement > Real Estate Development & Title Companies",
                "latitude": 40.316432,
                "longitude": -74.632846,
                "status": "1"
            },
            {
                "factual_id": "09a7e680-5502-47dd-a942-2b917569f7ce",
                "name": "Meridian Property Services",
                "address": "601 Ewing St",
                "locality": "Princeton",
                "region": "NJ",
                "country": "US",
                "postcode": "08540",
                "tel": "(601) 394-6478",
                "category": "Real Estate & Home Improvement",
                "latitude": 40.370462,
                "longitude": -74.65915,
                "status": "1"
            },
            {
                "factual_id": "0a412032-664d-464e-bcd5-46f0146a1367",
                "name": "Home Depot",
                "address": "701 Nassau Park Blvd",
                "locality": "Princeton",
                "region": "NJ",
                "country": "US",
                "postcode": "08540",
                "tel": "(609) 987-8686",
                "category": "Real Estate & Home Improvement",
                "website": "http://www.homedepot.com/",
                "latitude": 40.303281,
                "longitude": -74.67798,
                "status": "1"
            },
            {
                "factual_id": "0a45c7b0-81c8-4ea9-96ea-c499c8b9188a",
                "name": "Stadmauer Bailkin Biggins Group",
                "address": "32 Nassau St",
                "locality": "Princeton",
                "region": "NJ",
                "country": "US",
                "postcode": "08542",
                "tel": "(609) 924-9775",
                "category": "Real Estate & Home Improvement",
                "latitude": 40.348973,
                "longitude": -74.66232136,
                "status": "1"
            },
            {
                "factual_id": "0a7cb859-e770-479d-9d50-53d7f07ae0f1",
                "name": "Henderson Sotheby's International Realty",
                "address": "34 Chambers St",
                "locality": "Princeton",
                "region": "NJ",
                "country": "US",
                "postcode": "08542",
                "tel": "(609) 924-1000",
                "category": "Real Estate & Home Improvement",
                "website": "http://www.hendersonsothebys.com/",
                "latitude": 40.350067,
                "longitude": -74.662895,
                "status": "1"
            },
            {
                "factual_id": "0b42adc3-60fd-4db8-a4fa-08ffaa27a03c",
                "name": "Princeton Windrows condo Association",
                "address": "2000 Windrow Dr",
                "locality": "Princeton",
                "region": "NJ",
                "country": "US",
                "postcode": "08540",
                "tel": "(609) 520-3700",
                "category": "Real Estate & Home Improvement > Windows",
                "website": "http://www.princetonwindrows.com/",
                "latitude": 40.35772,
                "longitude": -74.6176,
                "status": "1"
            },
            {
                "factual_id": "0b456a4e-e94c-4bb0-a801-0b2ecfe3fd79",
                "name": "Harbourton Enterprises",
                "address": "33 Witherspoon St",
                "locality": "Princeton",
                "region": "NJ",
                "country": "US",
                "postcode": "08542",
                "tel": "(609) 924-4001",
                "category": "Real Estate & Home Improvement > Real Estate Agents",
                "latitude": 40.349777,
                "longitude": -74.659814,
                "status": "1"
            },
            {
                "factual_id": "0c9a089f-4224-48b3-b81f-5446de0f77b1",
                "name": "Lewis Barber Construction",
                "address": "271 Carter Rd",
                "locality": "Princeton",
                "region": "NJ",
                "country": "US",
                "postcode": "08540",
                "tel": "(609) 921-2658",
                "category": "Real Estate & Home Improvement > Contractors",
                "latitude": 40.34353,
                "longitude": -74.725894,
                "status": "1"
            },
            {
                "factual_id": "0dcec9ad-4eb3-43a1-8940-269548b8f39d",
                "name": "Ford Farewell Mills and Gatsch, Architects",
                "address": "103 Carnegie Ctr",
                "address_extended": "Ste 301",
                "locality": "Princeton",
                "region": "NJ",
                "country": "US",
                "postcode": "08540",
                "tel": "(609) 452-1777",
                "category": "Real Estate & Home Improvement",
                "website": "http://www.ffmg.com/",
                "latitude": 40.361982,
                "longitude": -74.630591,
                "status": "1"
            },
            {
                "factual_id": "0df28adc-347c-4e5b-a23e-b4ddd647da69",
                "name": "Tindall Homes",
                "address": "50 Randall Rd",
                "locality": "Princeton",
                "region": "NJ",
                "country": "US",
                "postcode": "08540",
                "tel": "(609) 430-0810",
                "category": "Real Estate & Home Improvement > Contractors",
                "latitude": 40.366093,
                "longitude": -74.647285,
                "status": "1"
            },
            {
                "factual_id": "0edb55d6-3fe8-4cf4-a34d-1588ff6488f8",
                "name": "Research Park",
                "address": "351 Wall St",
                "locality": "Princeton",
                "region": "NJ",
                "country": "US",
                "postcode": "08540",
                "tel": "(609) 924-5661",
                "category": "Real Estate & Home Improvement > Real Estate Agents",
                "latitude": 40.396475,
                "longitude": -74.650636,
                "status": "1"
            },
            {
                "factual_id": "0edca257-a998-4801-98ad-d9e8a228b746",
                "name": "Marquandhouse",
                "address": "150 Stockton St",
                "locality": "Princeton",
                "region": "NJ",
                "country": "US",
                "postcode": "08540",
                "tel": "(609) 921-7426",
                "category": "Real Estate & Home Improvement > Real Estate Agents",
                "latitude": 40.343388,
                "longitude": -74.671545,
                "status": "1"
            }
        ],
        "included_rows": 20
    }
}